[
    {
      "Address": "51470 TX-118, Alpine, TX 79830",
      "Latitude": 29.6230475,
      "Longitude": -103.5735422
    },
    {
      "Address": "51470 TX-118, Alpine, TX 79830",
      "Latitude": 29.6230475,
      "Longitude": -103.5735422
    },
    {
      "Address": "701 US-90, Marathon, TX 79842",
      "Latitude": 30.2092767,
      "Longitude": -103.2534649
    },
    {
      "Address": "NE 1st Street, Marathon, TX 79842",
      "Latitude": 30.2059726,
      "Longitude": -103.2414587
    },
    {
      "Address": "901 E Dickinson Blvd, Fort Stockton, TX 79735",
      "Latitude": 30.893618,
      "Longitude": -102.8700673
    },
    {
      "Address": "609 E Dickinson Blvd, Fort Stockton, TX 79735",
      "Latitude": 30.8933573,
      "Longitude": -102.8730252
    },
    {
      "Address": "6701 Convair Rd, El Paso, TX 79925",
      "Latitude": 31.7993289,
      "Longitude": -106.3957629
    },
    {
      "Address": "6505 Convair Rd Suite 400, El Paso, TX 79925",
      "Latitude": 31.7990652,
      "Longitude": -106.396255
    },
    {
      "Address": "10060 Olivia Terrace, Sun Valley, CA 91352",
      "Latitude": 34.2198565,
      "Longitude": -118.3500684
    },
    {
      "Address": "10060 Olivia Terrace, Sun Valley, CA 91352",
      "Latitude": 34.2198565,
      "Longitude": -118.3500684
    },
    {
      "Address": "1900 N 6th St, Burbank, CA 91504",
      "Latitude": 34.1996882,
      "Longitude": -118.3214124
    },
    {
      "Address": "13276 Van Nuys Blvd, Pacoima, CA 91331",
      "Latitude": 34.2656524,
      "Longitude": -118.4227328
    },
    {
      "Address": "13795 Balboa Blvd, Sylmar, CA 91342",
      "Latitude": 34.3211152,
      "Longitude": -118.4961068
    },
    {
      "Address": "50900 Seminole Drive, Cabazon, California, United States",
      "Latitude": 33.9198453,
      "Longitude": -116.7732968
    },
    {
      "Address": "50900 Seminole Drive, Cabazon, California, USA",
      "Latitude": 33.9198453,
      "Longitude": -116.7732968
    },
    {
      "Address": "212 Milam St, Houston, TX 77002",
      "Latitude": 29.764007,
      "Longitude": -95.3626743
    },
    {
      "Address": "Austin Ave & Procter St, Port Arthur, TX 77640",
      "Latitude": 29.871514,
      "Longitude": -93.9349405
    },
    {
      "Address": "205 Broadway, Nordheim, TX 78141",
      "Latitude": 28.9222486,
      "Longitude": -97.6101727
    },
    {
      "Address": "400 Dallas St, Houston, TX 77002",
      "Latitude": 29.7578744,
      "Longitude": -95.3709964999999
    },
    {
      "Address": "436 Procter St, Port Arthur, TX 77640",
      "Latitude": 29.8711467,
      "Longitude": -93.9350312999999
    },
    {
      "Address": "1100 Smith St, Houston, TX 77002",
      "Latitude": 29.7580338999999,
      "Longitude": -95.369458
    }
  ]